var geojson = [
    {
      "type" : "Feature",
      "properties" : {
        "title" : "'t Kadoke NV attn. De Kinderplaneet",
        "address" : "Betekomstraat 15, 3128, Baal, _belgium"
      },
      "geometry" : {
        "type" : "Point",
        "coordinates" : [
          4.7545436,
          50.9945555
        ]
      }
    },
    {
      "type" : "Feature",
      "properties" : {
        "title" : "'t Kadoke NV attn. De Kinderplaneet",
        "address" : "Baalsebaan 283, 3128, Baal, _belgium"
      },
      "geometry" : {
        "type" : "Point",
        "coordinates" : [
          4.7463669,
          50.9946466
        ]
      }
    },
    {
      "type" : "Feature",
      "properties" : {
        "title" : "'t Casteelken",
        "address" : "St. Petrus en Paulusstraat 2, 8800, Roeselare-Rumbeke, _belgium"
      },
      "geometry" : {
        "type" : "Point",
        "coordinates" : [
          3.1555944,
          50.9338054
        ]
      }
    },
    {
      "type" : "Feature",
      "properties" : {
        "title" : "Delfonics",
        "address" : "Galerie Du Carroussel, 75001, Paris, _france"
      },
      "geometry" : {
        "type" : "Point",
        "coordinates" : [
          2.3522219,
          48.856614
        ]
      }
    },
    {
      "type" : "Feature",
      "properties" : {
        "title" : "Renner + Rehm GmbH",
        "address" : "Jahnstrasse 42-44, 95030, Hof, _netherlands"
      },
      "geometry" : {
        "type" : "Point",
        "coordinates" : [
          6.6602895,
          51.8173649
        ]
      }
    },
    {
      "type" : "Feature",
      "properties" : {
        "title" : "Renner + Rehm GmbH Bayreuth",
        "address" : "Christian-Ritter-von-Langheinrich-Strasse 14, 95448, Bayreuth, _germany"
      },
      "geometry" : {
        "type" : "Point",
        "coordinates" : [
          11.60931,
          49.96005
        ]
      }
    },
    {
      "type" : "Feature",
      "properties" : {
        "title" : "Renner + Rehm GmbH Bayreuth",
        "address" : "Kirchgasse 2, 95448, Bayreuth, _germany"
      },
      "geometry" : {
        "type" : "Point",
        "coordinates" : [
          11.574109,
          49.9443318
        ]
      }
    },
    {
      "type" : "Feature",
      "properties" : {
        "title" : "'t Pauwtje",
        "address" : "Voldersgracht 5, 2611 ET, Delft, _netherlands"
      },
      "geometry" : {
        "type" : "Point",
        "coordinates" : [
          4.3580809,
          52.0118886
        ]
      }
    },
    {
      "type" : "Feature",
      "properties" : {
        "title" : "Neye Fonden",
        "address" : "Neye, 2630, Taastrup, _denmark"
      },
      "geometry" : {
        "type" : "Point",
        "coordinates" : [
          12.2979366,
          55.6460162
        ]
      }
    },
    {
      "type" : "Feature",
      "properties" : {
        "title" : "Neye Sonderborg",
        "address" : "Neye, 6400, Sonderborg, _denmark"
      },
      "geometry" : {
        "type" : "Point",
        "coordinates" : [
          9.792178,
          54.913811
        ]
      }
    },
    {
      "type" : "Feature",
      "properties" : {
        "title" : "Neye Alborg",
        "address" : "Alborg Storcenter, 9200, Alborg, _denmark"
      },
      "geometry" : {
        "type" : "Point",
        "coordinates" : [
          9.8737575,
          57.0056746
        ]
      }
    },
    {
      "type" : "Feature",
      "properties" : {
        "title" : "Neye Fonden",
        "address" : "Neye, 2630, Taastrup, _denmark"
      },
      "geometry" : {
        "type" : "Point",
        "coordinates" : [
          12.2979366,
          55.6460162
        ]
      }
    },
    {
      "type" : "Feature",
      "properties" : {
        "title" : "Neye A/S",
        "address" : "Hoersvinget 1-3 Byging 15A, 2630, Taastrup, _denmark"
      },
      "geometry" : {
        "type" : "Point",
        "coordinates" : [
          12.2979366,
          55.6460162
        ]
      }
    },
    {
      "type" : "Feature",
      "properties" : {
        "title" : "Thomas Boogert",
        "address" : "van Watervlietstraat 46, 2274 JZ, Voorburg, _netherlands"
      },
      "geometry" : {
        "type" : "Point",
        "coordinates" : [
          4.3564585,
          52.0706982
        ]
      }
    }
  ]
